{
  "type": "FeatureCollection",
  "name": "places-qgis",
  "crs": {
    "type": "name",
    "properties": {
      "name": "urn:ogc:def:crs:OGC:1.3:CRS84"
    }
  },
  "features": [
    {
      "type": "Feature",
      "properties": {
        "title": "Крістоф Лакарен. Вино всупереч усьому",
        "photoUrl": "https:\/\/ukrainer.net\/wp-content\/uploads\/2016\/07\/0-12-1024x640.jpg",
        "url": "https:\/\/ukrainer.net\/lakaren\/"
      },
      "geometry": {
        "type": "Point",
        "coordinates": [
          30.386717570552339,
          46.128139833364997
        ]
      }
    },
{ "type": "Feature", "properties": { "title": "Гагаузи України. Хто вони?", "photoUrl": "https:\/\/ukrainer.net\/wp-content\/uploads\/2016\/07\/0-128-1024x640.jpg", "url": "https:\/\/ukrainer.net\/gagauzy\/" }, "geometry": { "type": "Point", "coordinates": [ 28.573082548710147, 45.682109588846089 ] } },
{ "type": "Feature", "properties": { "title": "Тузловські лимани: дельфіни, птахи і волонтери", "photoUrl": "https:\/\/ukrainer.net\/wp-content\/uploads\/2016\/07\/13-11-1024x640.jpg", "url": "https:\/\/ukrainer.net\/tuzlovski-lymany\/" }, "geometry": { "type": "Point", "coordinates": [ 29.934383683571433, 45.739920798088534 ] } },
{ "type": "Feature", "properties": { "title": "Сергіївка: вітрила замість очерету", "photoUrl": "https:\/\/ukrainer.net\/wp-content\/uploads\/2016\/07\/0-1-1024x640.jpg", "url": "https:\/\/ukrainer.net\/sergiyivka\/" }, "geometry": { "type": "Point", "coordinates": [ 30.373007862388651, 46.02773171813449 ] } },
{ "type": "Feature", "properties": { "title": "Утконосівка: помідорова долина", "photoUrl": "https:\/\/ukrainer.net\/wp-content\/uploads\/2016\/07\/0-1024x640.jpg", "url": "https:\/\/ukrainer.net\/utkonosivka\/" }, "geometry": { "type": "Point", "coordinates": [ 28.954684598315325, 45.492862342376576 ] } },
{ "type": "Feature", "properties": { "title": "Друге дихання Фрумушики", "photoUrl": "https:\/\/ukrainer.net\/wp-content\/uploads\/2016\/07\/DSC6454-4-1024x640.jpg", "url": "https:\/\/ukrainer.net\/frumushyky\/" }, "geometry": { "type": "Point", "coordinates": [ 29.410706834101784, 46.292244180138525 ] } },
{ "type": "Feature", "properties": { "title": "Шагани. Життя на краю географії", "photoUrl": "https:\/\/ukrainer.net\/wp-content\/uploads\/2016\/07\/IMG_5076_1-1024x640.jpg", "url": "https:\/\/ukrainer.net\/shagany\/" }, "geometry": { "type": "Point", "coordinates": [ 29.84584454344651, 45.67290831091384 ] } },
{ "type": "Feature", "properties": { "title": "Бахтови. Зберегти дух Ольвії", "photoUrl": "https:\/\/ukrainer.net\/wp-content\/uploads\/2016\/07\/0-161-1024x640.jpg", "url": "https:\/\/ukrainer.net\/dukh-olviji\/" }, "geometry": { "type": "Point", "coordinates": [ 31.895275909338718, 46.709322560159734 ] } },
{ "type": "Feature", "properties": { "title": "Садити горіхи", "photoUrl": "https:\/\/ukrainer.net\/wp-content\/uploads\/2016\/07\/0-157-1024x640.jpg", "url": "https:\/\/ukrainer.net\/gorikhy\/" }, "geometry": { "type": "Point", "coordinates": [ 30.009607826127343, 46.544208830188545 ] } },
{ "type": "Feature", "properties": { "title": "Україна на електромобілях", "photoUrl": "https:\/\/ukrainer.net\/wp-content\/uploads\/2016\/07\/0-152-1024x640.jpg", "url": "https:\/\/ukrainer.net\/elektromobili\/" }, "geometry": { "type": "Point", "coordinates": [ 30.715667322615921, 46.474691690111342 ] } },
{ "type": "Feature", "properties": { "title": "Турки-месхетинці України. Хто вони?", "photoUrl": "https:\/\/ukrainer.net\/wp-content\/uploads\/2016\/07\/0-146-1024x640.jpg", "url": "https:\/\/ukrainer.net\/turky-ukrajiny\/" }, "geometry": { "type": "Point", "coordinates": [ 32.267064406972096, 47.190760875842415 ] } },
{ "type": "Feature", "properties": { "title": "Ольвія: найбільший античний поліс Причорномор’я", "photoUrl": "https:\/\/ukrainer.net\/wp-content\/uploads\/2016\/07\/0-117-1024x640.jpg", "url": "https:\/\/ukrainer.net\/olviya\/" }, "geometry": { "type": "Point", "coordinates": [ 31.898661846282071, 46.686362820628808 ] } },
{ "type": "Feature", "properties": { "title": "Роми Золотоноші", "photoUrl": "https:\/\/ukrainer.net\/wp-content\/uploads\/2016\/07\/0-43-1024x640.jpg", "url": "https:\/\/ukrainer.net\/romy-zolotonoshi\/" }, "geometry": { "type": "Point", "coordinates": [ 32.04096061556006, 49.668402722138865 ] } },
{ "type": "Feature", "properties": { "title": "Українські гітари для світового ринку", "photoUrl": "https:\/\/ukrainer.net\/wp-content\/uploads\/2016\/07\/0-94-1024x640.jpg", "url": "https:\/\/ukrainer.net\/universum-guitars\/" }, "geometry": { "type": "Point", "coordinates": [ 30.114263099414586, 49.800414905200277 ] } },
{ "type": "Feature", "properties": { "title": "Живий музей гармоніки у Жашкові", "photoUrl": "https:\/\/ukrainer.net\/wp-content\/uploads\/2016\/07\/0-99-1024x640.jpg", "url": "https:\/\/ukrainer.net\/zhashkiv\/" }, "geometry": { "type": "Point", "coordinates": [ 30.102219979282285, 49.245817293903613 ] } },
{ "type": "Feature", "properties": { "title": "Врятувати Черкаси від пластику", "photoUrl": "https:\/\/ukrainer.net\/wp-content\/uploads\/2016\/07\/0-102-1024x640.jpg", "url": "https:\/\/ukrainer.net\/vryatuvaty-cherkasy\/" }, "geometry": { "type": "Point", "coordinates": [ 32.053769268259757, 49.436606079176087 ] } },
{ "type": "Feature", "properties": { "title": "Не можу купити машину — зроблю!", "photoUrl": "https:\/\/ukrainer.net\/wp-content\/uploads\/2016\/07\/0-104-1024x640.jpg", "url": "https:\/\/ukrainer.net\/chuzhyj\/" }, "geometry": { "type": "Point", "coordinates": [ 29.806590358704323, 50.465320224721779 ] } },
{ "type": "Feature", "properties": { "title": "Аеропракт – українські літаки для світу", "photoUrl": "https:\/\/ukrainer.net\/wp-content\/uploads\/2016\/07\/0-107-1024x640.jpg", "url": "https:\/\/ukrainer.net\/aeroprakt\/" }, "geometry": { "type": "Point", "coordinates": [ 29.714025332889381, 50.485900731993084 ] } },
{ "type": "Feature", "properties": { "title": "ГогольTrain. Перший легальний арт-потяг", "photoUrl": "https:\/\/ukrainer.net\/wp-content\/uploads\/2016\/07\/0-2-9-1024x640.jpg", "url": "https:\/\/ukrainer.net\/gogoltrain\/" }, "geometry": { "type": "Point", "coordinates": [ 37.547303865250193, 47.106651333962539 ] } },
{ "type": "Feature", "properties": { "title": "Баришівка та Переяслав від alyona alyona", "photoUrl": "https:\/\/ukrainer.net\/wp-content\/uploads\/2016\/07\/0-135-1024x640.jpg", "url": "https:\/\/ukrainer.net\/alyona-alyona\/" }, "geometry": { "type": "Point", "coordinates": [ 31.326299680939982, 50.366925593724176 ] } },
{ "type": "Feature", "properties": { "title": "Відкрити арт-центр у селі\nМистецтво", "photoUrl": "https:\/\/ukrainer.net\/wp-content\/uploads\/2016\/07\/0-139-1024x640.jpg", "url": "https:\/\/ukrainer.net\/bartosik\/" }, "geometry": { "type": "Point", "coordinates": [ 30.453220432150022, 48.98956623802227 ] } },
{ "type": "Feature", "properties": { "title": "Київ від Павла Зіброва", "photoUrl": "https:\/\/ukrainer.net\/wp-content\/uploads\/2016\/07\/0-143-1024x640.jpg", "url": "https:\/\/ukrainer.net\/kyiv-vid-zibrova\/" }, "geometry": { "type": "Point", "coordinates": [ 30.544437315469985, 50.449968026224084 ] } },
{ "type": "Feature", "properties": { "title": "Зерноленд. Повернути життя селу", "photoUrl": "https:\/\/ukrainer.net\/wp-content\/uploads\/2016\/07\/0-149-1024x640.jpg", "url": "https:\/\/ukrainer.net\/zernolend\/" }, "geometry": { "type": "Point", "coordinates": [ 32.388732328091514, 49.138602189860194 ] } },
{ "type": "Feature", "properties": { "title": "Васильків від Jerry Heil", "photoUrl": "https:\/\/ukrainer.net\/wp-content\/uploads\/2016\/07\/0-153-1024x640.jpg", "url": "https:\/\/ukrainer.net\/jerry-heil\/" }, "geometry": { "type": "Point", "coordinates": [ 30.325773688649996, 50.167993880728851 ] } },
{ "type": "Feature", "properties": { "title": "Київ від ONUKA", "photoUrl": "https:\/\/ukrainer.net\/wp-content\/uploads\/2016\/07\/0-166-1024x640.jpg", "url": "https:\/\/ukrainer.net\/onuka\/" }, "geometry": { "type": "Point", "coordinates": [ 30.557772394671662, 50.43466792295235 ] } }
]
}
